{
    "name": "高鐵",
    "stations": [
        {
            "id": "01",
            "name": "南港站",
            "future": true,
            "addr": "11568 台北市南港區南港路一段313號",
            "lat": 25.052116,
            "lon": 121.606686
        },
        {
            "id": "02",
            "name": "台北站",
            "addr": "10041 台北市中正區北平西路3號",
            "lat": 25.047924,
            "lon": 121.517081
        },
        {
            "id": "03",
            "name": "板橋站",
            "addr": "22041 新北市板橋區縣民大道二段7號",
            "lat": 25.014051,
            "lon": 121.463815
        },
        {
            "id": "04",
            "name": "桃園站",
            "addr": "32056 桃園縣中壢市高鐵北路一段6號",
            "lat": 25.013093,
            "lon": 121.215217
        },
        {
            "id": "05",
            "name": "新竹站",
            "addr": "30273 新竹縣竹北市高鐵七路6號",
            "lat": 24.80806,
            "lon": 121.040415
        },
        {
            "id": "06",
            "name": "苗栗站",
            "future": true
        },
        {
            "id": "07",
            "name": "台中站",
            "addr": "41456 台中市烏日區站區二路8號",
            "lat": 24.112143,
            "lon": 120.616152
        },
        {
            "id": "08",
            "name": "雲林站",
            "future": true
        },
        {
            "id": "09",
            "name": "嘉義站",
            "addr": "61241 嘉義縣太保市高鐵西路168號",
            "lat": 23.459565,
            "lon": 120.32332
        },
        {
            "id": "10",
            "name": "台南站",
            "addr": "71151 台南市歸仁區歸仁大道100號",
            "lat": 22.924928,
            "lon": 120.28572
        },
        {
            "id": "11",
            "name": "左營站",
            "addr": "81361 高雄市左營區高鐵路105號",
            "lat": 22.686927,
            "lon": 120.307827
        }
    ]
}